{
  "type": "FeatureCollection",
  "features": [
    {
      "type": "Feature",
      "properties": {
        "city": "Trento",
        "name": "Scala di Trento",
        "url": "https://www.instagram.com/scaladitrento",
        "weekdays": [
          "thu"
        ]
      },
      "geometry": {
        "type": "Point",
        "coordinates": [
          11.121,
          46.0705
        ]
      }
    },
    {
      "type": "Feature",
      "properties": {
        "city": "Fiume Veneto",
        "name": "Tocai Cypher",
        "url": "https://www.instagram.com/tocai.cypher",
        "weekdays": [
          "fri"
        ]
      },
      "geometry": {
        "type": "Point",
        "coordinates": [
          12.7396,
          45.9302
        ]
      }
    },
    {
      "type": "Feature",
      "properties": {
        "city": "Treviso",
        "name": "Le Mura Freestyle Treviso",
        "url": "https://www.instagram.com/le.mura.freestyle_treviso",
        "weekdays": [
          "thu"
        ]
      },
      "geometry": {
        "type": "Point",
        "coordinates": [
          12.2422,
          45.6669
        ]
      }
    },
    {
      "type": "Feature",
      "properties": {
        "city": "Paderno Dugnano",
        "name": "Rappaderno",
        "url": "https://www.instagram.com/rappaderno.037",
        "weekdays": [
          "fri"
        ]
      },
      "geometry": {
        "type": "Point",
        "coordinates": [
          9.1645,
          45.568
        ]
      }
    },
    {
      "type": "Feature",
      "properties": {
        "city": "Vicenza",
        "name": "Rimerie Vicentine",
        "url": "https://www.instagram.com/rimerievicentine",
        "weekdays": [
          "wed"
        ]
      },
      "geometry": {
        "type": "Point",
        "coordinates": [
          11.5459,
          45.5455
        ]
      }
    },
    {
      "type": "Feature",
      "properties": {
        "city": "Brescia",
        "name": "Muretto di Brescia",
        "url": "https://www.instagram.com/muretto_dibrescia",
        "weekdays": [
          "thu"
        ]
      },
      "geometry": {
        "type": "Point",
        "coordinates": [
          10.2118,
          45.5416
        ]
      }
    },
    {
      "type": "Feature",
      "properties": {
        "city": "Milano",
        "name": "Muretto Milano",
        "url": "https://www.instagram.com/muretto.milano",
        "weekdays": [
          "wed"
        ]
      },
      "geometry": {
        "type": "Point",
        "coordinates": [
          9.19,
          45.4642
        ]
      }
    },
    {
      "type": "Feature",
      "properties": {
        "city": "Vigonza",
        "name": "Boschetto",
        "url": "https://www.instagram.com/boschetto.mk",
        "weekdays": [
          "fri"
        ]
      },
      "geometry": {
        "type": "Point",
        "coordinates": [
          11.9886,
          45.4347
        ]
      }
    },
    {
      "type": "Feature",
      "properties": {
        "city": "Venezia",
        "name": "Piramidi Freestyle Cypher",
        "url": "https://www.instagram.com/piramidifreestylecypher",
        "weekdays": [
          "mon"
        ]
      },
      "geometry": {
        "type": "Point",
        "coordinates": [
          12.3155,
          45.4408
        ]
      }
    },
    {
      "type": "Feature",
      "properties": {
        "city": "Verona",
        "name": "Il Mattone di Verona",
        "url": "https://www.instagram.com/mattone_vr",
        "weekdays": [
          "thu"
        ]
      },
      "geometry": {
        "type": "Point",
        "coordinates": [
          10.9916,
          45.4384
        ]
      }
    },
    {
      "type": "Feature",
      "properties": {
        "city": "Padova",
        "name": "Fungo Micelio",
        "url": "https://www.instagram.com/fungo.micelio",
        "weekdays": [
          "tue"
        ]
      },
      "geometry": {
        "type": "Point",
        "coordinates": [
          11.8768,
          45.4064
        ]
      }
    },
    {
      "type": "Feature",
      "properties": {
        "city": "Chioggia",
        "name": "Freesta Rosa Cypher",
        "url": "https://www.instagram.com/freestarosacypher",
        "weekdays": [
          "tue"
        ]
      },
      "geometry": {
        "type": "Point",
        "coordinates": [
          12.2775,
          45.2186
        ]
      }
    },
    {
      "type": "Feature",
      "properties": {
        "city": "Pavia",
        "name": "PVCypha",
        "url": "https://www.instagram.com/tretorripvc",
        "weekdays": [
          "fri"
        ]
      },
      "geometry": {
        "type": "Point",
        "coordinates": [
          9.1566,
          45.1847
        ]
      }
    },
    {
      "type": "Feature",
      "properties": {
        "city": "Cremona",
        "name": "Il Torrazzo di Cremona",
        "url": "https://www.instagram.com/iltorrazzocr",
        "weekdays": [
          "thu"
        ]
      },
      "geometry": {
        "type": "Point",
        "coordinates": [
          10.0227,
          45.1333
        ]
      }
    },
    {
      "type": "Feature",
      "properties": {
        "city": "Torino",
        "name": "Regio Freestyle Torino",
        "url": "https://www.instagram.com/regio_freestyle_torino",
        "weekdays": [
          "wed"
        ]
      },
      "geometry": {
        "type": "Point",
        "coordinates": [
          7.6869,
          45.0703
        ]
      }
    },
    {
      "type": "Feature",
      "properties": {
        "city": "Pinerolo",
        "name": "La Fonte",
        "url": "https://www.instagram.com/fonte_pinerolo_freestyle_",
        "weekdays": [
          "mon"
        ]
      },
      "geometry": {
        "type": "Point",
        "coordinates": [
          7.3323,
          44.885
        ]
      }
    },
    {
      "type": "Feature",
      "properties": {
        "city": "Ferrara",
        "name": "Freestyle Darsena",
        "url": "https://www.instagram.com/freestyledarsena",
        "weekdays": [
          "mon"
        ]
      },
      "geometry": {
        "type": "Point",
        "coordinates": [
          11.6198,
          44.8381
        ]
      }
    },
    {
      "type": "Feature",
      "properties": {
        "city": "Parma",
        "name": "Il Cerchio",
        "url": "https://www.instagram.com/ilcerchio.pr",
        "weekdays": [
          "thu"
        ]
      },
      "geometry": {
        "type": "Point",
        "coordinates": [
          10.3279,
          44.8015
        ]
      }
    },
    {
      "type": "Feature",
      "properties": {
        "city": "Reggio Emilia",
        "name": "Mureggio Free",
        "url": "https://www.instagram.com/mureggio_free",
        "weekdays": [
          "wed"
        ]
      },
      "geometry": {
        "type": "Point",
        "coordinates": [
          10.63,
          44.6983
        ]
      }
    },
    {
      "type": "Feature",
      "properties": {
        "city": "Bologna",
        "name": "Sanfra Bolo",
        "url": "https://www.instagram.com/sanfra.bo",
        "weekdays": [
          "tue"
        ]
      },
      "geometry": {
        "type": "Point",
        "coordinates": [
          11.3426,
          44.4949
        ]
      }
    },
    {
      "type": "Feature",
      "properties": {
        "city": "Lugo",
        "name": "La Loggia",
        "url": "https://www.instagram.com/loggialugofreestyle",
        "weekdays": [
          "thu"
        ]
      },
      "geometry": {
        "type": "Point",
        "coordinates": [
          11.9105,
          44.4214
        ]
      }
    },
    {
      "type": "Feature",
      "properties": {
        "city": "Genova",
        "name": "Muretto di Genova",
        "url": "https://www.instagram.com/leaguria/",
        "weekdays": [
          "wed"
        ]
      },
      "geometry": {
        "type": "Point",
        "coordinates": [
          8.9463,
          44.4056
        ]
      }
    },
    {
      "type": "Feature",
      "properties": {
        "city": "Genova",
        "name": "Rosse Cypher",
        "url": "https://www.instagram.com/rossecypha/",
        "weekdays": [
          "mon"
        ]
      },
      "geometry": {
        "type": "Point",
        "coordinates": [
          8.9339,
          44.4071
        ]
      }
    },
    {
      "type": "Feature",
      "properties": {
        "city": "Carrara",
        "name": "Fortitudo Mea in Rap",
        "url": "https://www.instagram.com/fortitudo_rap",
        "weekdays": [
          "wed"
        ]
      },
      "geometry": {
        "type": "Point",
        "coordinates": [
          10.0977,
          44.0793
        ]
      }
    },
    {
      "type": "Feature",
      "properties": {
        "city": "Santarcangelo",
        "name": "Muretto Santarcangelo",
        "url": "https://www.instagram.com/murettosantarcangelo",
        "weekdays": [
          "wed"
        ]
      },
      "geometry": {
        "type": "Point",
        "coordinates": [
          12.4463,
          44.0633
        ]
      }
    },
    {
      "type": "Feature",
      "properties": {
        "city": "Imperia",
        "name": "Muretto di Imperia",
        "url": "https://www.instagram.com/ligunionevents/",
        "weekdays": [
          "mon"
        ]
      },
      "geometry": {
        "type": "Point",
        "coordinates": [
          8.0306,
          43.8868
        ]
      }
    },
    {
      "type": "Feature",
      "properties": {
        "city": "Prato",
        "name": "Muraglia Prato",
        "url": "https://www.instagram.com/muraglia.prato",
        "weekdays": [
          "fri"
        ]
      },
      "geometry": {
        "type": "Point",
        "coordinates": [
          11.097,
          43.8777
        ]
      }
    },
    {
      "type": "Feature",
      "properties": {
        "city": "Firenze",
        "name": "Giglio",
        "url": "https://www.instagram.com/giglio_fi",
        "weekdays": [
          "thu"
        ]
      },
      "geometry": {
        "type": "Point",
        "coordinates": [
          11.2558,
          43.7696
        ]
      }
    },
    {
      "type": "Feature",
      "properties": {
        "city": "Pontassieve",
        "name": "Sieveflow",
        "url": "https://www.instagram.com/sieveflow",
        "weekdays": [
          "wed"
        ]
      },
      "geometry": {
        "type": "Point",
        "coordinates": [
          11.436,
          43.7742
        ]
      }
    },
    {
      "type": "Feature",
      "properties": {
        "city": "Empoli",
        "name": "Stadivm Technique",
        "url": "https://www.instagram.com/stadivm_technique",
        "weekdays": [
          "sun"
        ]
      },
      "geometry": {
        "type": "Point",
        "coordinates": [
          10.9477,
          43.7196
        ]
      }
    },
    {
      "type": "Feature",
      "properties": {
        "city": "Ancona",
        "name": "Plaza",
        "url": "https://www.instagram.com/tredueunoplaza",
        "weekdays": [
          "thu"
        ]
      },
      "geometry": {
        "type": "Point",
        "coordinates": [
          13.5189,
          43.6158
        ]
      }
    },
    {
      "type": "Feature",
      "properties": {
        "city": "Perugia",
        "name": "Muretto Perugia",
        "url": "https://www.instagram.com/muretto.pg",
        "weekdays": [
          "fri"
        ]
      },
      "geometry": {
        "type": "Point",
        "coordinates": [
          12.3888,
          43.1122
        ]
      }
    },
    {
      "type": "Feature",
      "properties": {
        "city": "Teramo",
        "name": "Teramo Cypher",
        "url": "https://www.instagram.com/teramocypher",
        "weekdays": [
          "fri"
        ]
      },
      "geometry": {
        "type": "Point",
        "coordinates": [
          13.7035,
          42.6589
        ]
      }
    },
    {
      "type": "Feature",
      "properties": {
        "city": "Pescara",
        "name": "FRP Freestyle Reunion",
        "url": "https://www.instagram.com/freestylereunionpescara",
        "weekdays": [
          "fri"
        ]
      },
      "geometry": {
        "type": "Point",
        "coordinates": [
          14.213,
          42.4618
        ]
      }
    },
    {
      "type": "Feature",
      "properties": {
        "city": "Viterbo",
        "name": "Barre Faul",
        "url": "https://www.instagram.com/barre_faul",
        "weekdays": [
          "wed"
        ]
      },
      "geometry": {
        "type": "Point",
        "coordinates": [
          12.1077,
          42.4207
        ]
      }
    },
    {
      "type": "Feature",
      "properties": {
        "city": "Guidonia",
        "name": "Alcyone Flow Freestyle",
        "url": "https://www.instagram.com/alcyoneflowfreestyle",
        "weekdays": [
          "tue"
        ]
      },
      "geometry": {
        "type": "Point",
        "coordinates": [
          12.7229,
          41.9926
        ]
      }
    },
    {
      "type": "Feature",
      "properties": {
        "city": "Roma",
        "name": "Ateneo",
        "url": "https://www.instagram.com/ateneorm",
        "weekdays": [
          "thu"
        ]
      },
      "geometry": {
        "type": "Point",
        "coordinates": [
          12.4964,
          41.9028
        ]
      }
    },
    {
      "type": "Feature",
      "properties": {
        "city": "Barletta",
        "name": "Colossus Cypher",
        "url": "https://www.instagram.com/colossus.cypher",
        "weekdays": [
          "tue"
        ]
      },
      "geometry": {
        "type": "Point",
        "coordinates": [
          16.2833,
          41.3183
        ]
      }
    },
    {
      "type": "Feature",
      "properties": {
        "city": "Bari",
        "name": "Rossani Cypher",
        "url": "https://www.instagram.com/rossani.bari",
        "weekdays": [
          "wed"
        ]
      },
      "geometry": {
        "type": "Point",
        "coordinates": [
          16.8719,
          41.1171
        ]
      }
    },
    {
      "type": "Feature",
      "properties": {
        "city": "Bitonto",
        "name": "Beatonto Cypher",
        "url": "https://www.instagram.com/beatonto_cypher",
        "weekdays": [
          "tue"
        ]
      },
      "geometry": {
        "type": "Point",
        "coordinates": [
          16.6906,
          41.1074
        ]
      }
    },
    {
      "type": "Feature",
      "properties": {
        "city": "Brindisi",
        "name": "Br Cypher",
        "url": "https://www.instagram.com/brcypher",
        "weekdays": [
          "tue"
        ]
      },
      "geometry": {
        "type": "Point",
        "coordinates": [
          17.9381,
          40.6327
        ]
      }
    },
    {
      "type": "Feature",
      "properties": {
        "city": "Massafra",
        "name": "Massypher",
        "url": "https://www.instagram.com/massypher",
        "weekdays": [
          "tue"
        ]
      },
      "geometry": {
        "type": "Point",
        "coordinates": [
          17.1154,
          40.586
        ]
      }
    },
    {
      "type": "Feature",
      "properties": {
        "city": "Taranto",
        "name": "2Mari Cypher",
        "url": "https://www.instagram.com/2maricypher",
        "weekdays": [
          "thu"
        ]
      },
      "geometry": {
        "type": "Point",
        "coordinates": [
          17.2505,
          40.4709
        ]
      }
    },
    {
      "type": "Feature",
      "properties": {
        "city": "Taranto",
        "name": "Tamburi Cypher",
        "url": "https://www.instagram.com/tamburicypher",
        "weekdays": [
          "sun"
        ]
      },
      "geometry": {
        "type": "Point",
        "coordinates": [
          17.2288,
          40.4942
        ]
      }
    },
    {
      "type": "Feature",
      "properties": {
        "city": "Lecce",
        "name": "Le Cypher",
        "url": "https://www.instagram.com/lecce.cypher",
        "weekdays": [
          "thu"
        ]
      },
      "geometry": {
        "type": "Point",
        "coordinates": [
          18.1718,
          40.3515
        ]
      }
    },
    {
      "type": "Feature",
      "properties": {
        "city": "Porto Cesareo",
        "name": "Cisaypher",
        "url": "https://www.instagram.com/cisaypher",
        "weekdays": [
          "mon"
        ]
      },
      "geometry": {
        "type": "Point",
        "coordinates": [
          17.8935,
          40.2593
        ]
      }
    },
    {
      "type": "Feature",
      "properties": {
        "city": "Rende",
        "name": "Cosenza Campus Cypher",
        "url": "https://www.instagram.com/cosenzacampuscypher",
        "weekdays": [
          "thu"
        ]
      },
      "geometry": {
        "type": "Point",
        "coordinates": [
          16.2319,
          39.3308
        ]
      }
    },
    {
      "type": "Feature",
      "properties": {
        "city": "Cosenza",
        "name": "Versum Cosenza",
        "url": "https://www.instagram.com/versumcosenza",
        "weekdays": [
          "tue"
        ]
      },
      "geometry": {
        "type": "Point",
        "coordinates": [
          16.2537,
          39.2983
        ]
      }
    },
    {
      "type": "Feature",
      "properties": {
        "city": "Cagliari",
        "name": "Bastione Freestyle",
        "url": "https://www.instagram.com/bastione_freestyle_cagliari",
        "weekdays": [
          "sun"
        ]
      },
      "geometry": {
        "type": "Point",
        "coordinates": [
          9.1217,
          39.2238
        ]
      }
    },
    {
      "type": "Feature",
      "properties": {
        "city": "Milazzo",
        "name": "Bonsai Cypher",
        "url": "https://www.instagram.com/bonsai_cypher",
        "weekdays": [
          "fri"
        ]
      },
      "geometry": {
        "type": "Point",
        "coordinates": [
          15.238,
          38.2207
        ]
      }
    },
    {
      "type": "Feature",
      "properties": {
        "city": "Messina",
        "name": "Stretto Cypher",
        "url": "https://www.instagram.com/strettocypher",
        "weekdays": [
          "wed"
        ]
      },
      "geometry": {
        "type": "Point",
        "coordinates": [
          15.554,
          38.1938
        ]
      }
    },
    {
      "type": "Feature",
      "properties": {
        "city": "Palermo",
        "name": "Muster Palermo",
        "url": "https://www.instagram.com/musterpalermo",
        "weekdays": [
          "tue"
        ]
      },
      "geometry": {
        "type": "Point",
        "coordinates": [
          13.3615,
          38.1157
        ]
      }
    },
    {
      "type": "Feature",
      "properties": {
        "city": "Catania",
        "name": "Panchine Experience",
        "url": "https://www.instagram.com/panchine_exp",
        "weekdays": [
          "tue"
        ]
      },
      "geometry": {
        "type": "Point",
        "coordinates": [
          15.0873,
          37.5027
        ]
      }
    },
    {
      "type": "Feature",
      "properties": {
        "city": "Canicattì",
        "name": "Trinchera",
        "url": "https://www.instagram.com/trinchera.muretto",
        "weekdays": [
          "thu"
        ]
      },
      "geometry": {
        "type": "Point",
        "coordinates": [
          13.8546,
          37.358
        ]
      }
    },
    {
      "type": "Feature",
      "properties": {
        "city": "Agrigento",
        "name": "Underdogs",
        "url": "https://www.instagram.com/underdogs_ag",
        "weekdays": [
          "wed"
        ]
      },
      "geometry": {
        "type": "Point",
        "coordinates": [
          13.5765,
          37.3111
        ]
      }
    },
    {
      "type": "Feature",
      "properties": {
        "city": "Siracusa",
        "name": "Muretto Siracusa",
        "url": "https://www.instagram.com/muretto.siracusa",
        "weekdays": [
          "thu"
        ]
      },
      "geometry": {
        "type": "Point",
        "coordinates": [
          15.2866,
          37.0755
        ]
      }
    },
    {
      "type": "Feature",
      "properties": {
        "city": "Ragusa",
        "name": "Il Muretto di Ragusa",
        "url": "https://www.instagram.com/muretto.ragusa",
        "weekdays": [
          "tue"
        ]
      },
      "geometry": {
        "type": "Point",
        "coordinates": [
          14.7302,
          36.9269
        ]
      }
    },
    {
      "type": "Feature",
      "properties": {
        "city": "Napoli",
        "name": "A’ Mostr",
        "url": "https://www.instagram.com/a_mostr.10/",
        "weekdays": [
          "wed"
        ]
      },
      "geometry": {
        "type": "Point",
        "coordinates": [
          14.2681,
          40.8518
        ]
      }
    },
    {
      "type": "Feature",
      "properties": {
        "city": "Pomigliano d'Arco",
        "name": "Gradoni",
        "url": "https://www.instagram.com/igradoni.na/",
        "weekdays": [
          "tue"
        ]
      },
      "geometry": {
        "type": "Point",
        "coordinates": [
          14.3876,
          40.905
        ]
      }
    },
    {
      "type": "Feature",
      "properties": {
        "city": "Livorno",
        "name": "L’Arena",
        "url": "https://www.instagram.com/arenafreestylelivorno/",
        "weekdays": [
          "wed"
        ]
      },
      "geometry": {
        "type": "Point",
        "coordinates": [
          10.3106,
          43.5485
        ]
      }
    },
    {
      "type": "Feature",
      "properties": {
        "city": "Bassano del Grappa",
        "name": "Trinità Freestyle Cypher",
        "url": "https://www.instagram.com/trinita.freestylecypher/",
        "weekdays": [
          "tue"
        ]
      },
      "geometry": {
        "type": "Point",
        "coordinates": [
          11.7314,
          45.7663
        ]
      }
    },
    {
      "type": "Feature",
      "properties": {
        "city": "Atripalda",
        "name": "Fattaccio",
        "url": "https://www.instagram.com/il.fattaccio_av/",
        "weekdays": [
          "wed"
        ]
      },
      "geometry": {
        "type": "Point",
        "coordinates": [
          14.8325,
          40.9154
        ]
      }
    },
    {
      "type": "Feature",
      "properties": {
        "city": "Salerno",
        "name": "Scalette Salerno",
        "url": "https://www.instagram.com/scalettessea/",
        "weekdays": [
          "thu"
        ]
      },
      "geometry": {
        "type": "Point",
        "coordinates": [
          14.7681,
          40.6824
        ]
      }
    },
    {
      "type": "Feature",
      "properties": {
        "city": "Benevento",
        "name": "Il Sabba",
        "url": "https://www.instagram.com/ilsabba_bn/",
        "weekdays": [
          "sun"
        ]
      },
      "geometry": {
        "type": "Point",
        "coordinates": [
          14.7818,
          41.1298
        ]
      }
    },
    {
      "type": "Feature",
      "properties": {
        "city": "Avellino",
        "name": "Il Macello",
        "url": "https://www.instagram.com/ilmacello.av/",
        "weekdays": [
          "wed"
        ]
      },
      "geometry": {
        "type": "Point",
        "coordinates": [
          14.7892,
          40.9144
        ]
      }
    },
    {
      "type": "Feature",
      "properties": {
        "city": "Lucca",
        "name": "55Centro",
        "url": "https://www.instagram.com/50cinquecentro",
        "weekdays": [
          "mon"
        ]
      },
      "geometry": {
        "type": "Point",
        "coordinates": [
          10.5027,
          43.8429
        ]
      }
    },
    {
      "type": "Feature",
      "properties": {
        "city": "Siena",
        "name": "Il Brodo",
        "url": "https://www.instagram.com/ilbrodo_siena",
        "weekdays": [
          "tue"
        ]
      },
      "geometry": {
        "type": "Point",
        "coordinates": [
          11.3308,
          43.3188
        ]
      }
    }
  ]
}